{
  "type": "FeatureCollection",
  "name": "mnodes",
  "crs": {
    "type": "name",
    "properties": {
      "name": "urn:ogc:def:crs:OGC:1.3:CRS84"
    }
  },
  "features": [
    {
      "type": "Feature",
      "properties": {
        "VERSION": 20150128,
        "NODE_ID": "553700028",
        "NAME": "우명네거리",
        "GROUP": "SA 93"
      },
      "geometry": {
        "type": "Point",
        "coordinates": [
          127.302841,
          36.22427
        ]
      }
    },
    {
      "type": "Feature",
      "properties": {
        "VERSION": 20150128,
        "NODE_ID": "553700041",
        "NAME": "평촌마을회관(단)",
        "GROUP": "SA 93"
      },
      "geometry": {
        "type": "Point",
        "coordinates": [
          127.318199,
          36.239105
        ]
      }
    },
    {
      "type": "Feature",
      "properties": {
        "VERSION": 20150128,
        "NODE_ID": "553700134",
        "NAME": "오동(단)",
        "GROUP": "SA 93"
      },
      "geometry": {
        "type": "Point",
        "coordinates": [
          127.309013,
          36.230965
        ]
      }
    },
    {
      "type": "Feature",
      "properties": {
        "VERSION": 20150128,
        "NODE_ID": "553700178",
        "NAME": "기성초교(단)",
        "GROUP": "SA 94"
      },
      "geometry": {
        "type": "Point",
        "coordinates": [
          127.336166,
          36.250584
        ]
      }
    },
    {
      "type": "Feature",
      "properties": {
        "VERSION": 20150128,
        "NODE_ID": "553700181",
        "NAME": "새터(단)",
        "GROUP": "SA 94"
      },
      "geometry": {
        "type": "Point",
        "coordinates": [
          127.325348,
          36.243649
        ]
      }
    },
    {
      "type": "Feature",
      "properties": {
        "VERSION": 20150128,
        "NODE_ID": "553700184",
        "NAME": "사기점골(단)",
        "GROUP": " "
      },
      "geometry": {
        "type": "Point",
        "coordinates": [
          127.321854,
          36.24107
        ]
      }
    },
    {
      "type": "Feature",
      "properties": {
        "VERSION": 20150128,
        "NODE_ID": "553701278",
        "NAME": "협신통신(단)",
        "GROUP": "SA 93"
      },
      "geometry": {
        "type": "Point",
        "coordinates": [
          127.319687,
          36.239803
        ]
      }
    },
    {
      "type": "Feature",
      "properties": {
        "VERSION": 20150128,
        "NODE_ID": "553701841",
        "NAME": "우명교삼거리",
        "GROUP": "SA 93"
      },
      "geometry": {
        "type": "Point",
        "coordinates": [
          127.305206,
          36.230366
        ]
      }
    },
    {
      "type": "Feature",
      "properties": {
        "VERSION": 20150128,
        "NODE_ID": "553800016",
        "NAME": "흑석네거리",
        "GROUP": " "
      },
      "geometry": {
        "type": "Point",
        "coordinates": [
          127.340469,
          36.254436
        ]
      }
    },
    {
      "type": "Feature",
      "properties": {
        "VERSION": 20150128,
        "NODE_ID": "553800040",
        "NAME": "용자리골삼거리",
        "GROUP": " "
      },
      "geometry": {
        "type": "Point",
        "coordinates": [
          127.345879,
          36.261845
        ]
      }
    },
    {
      "type": "Feature",
      "properties": {
        "VERSION": 20150128,
        "NODE_ID": "553800055",
        "NAME": "계룡역삼거리",
        "GROUP": " "
      },
      "geometry": {
        "type": "Point",
        "coordinates": [
          127.281441,
          36.267033
        ]
      }
    },
    {
      "type": "Feature",
      "properties": {
        "VERSION": 20150128,
        "NODE_ID": "553800079",
        "NAME": "느리울중네거리",
        "GROUP": "SA 69"
      },
      "geometry": {
        "type": "Point",
        "coordinates": [
          127.340538,
          36.296501
        ]
      }
    },
    {
      "type": "Feature",
      "properties": {
        "VERSION": 20150128,
        "NODE_ID": "553800117",
        "NAME": "방동삼거리",
        "GROUP": "SA 32"
      },
      "geometry": {
        "type": "Point",
        "coordinates": [
          127.310944,
          36.285099
        ]
      }
    },
    {
      "type": "Feature",
      "properties": {
        "VERSION": 20150128,
        "NODE_ID": "553800133",
        "NAME": "산성교회네거리",
        "GROUP": "SA 115"
      },
      "geometry": {
        "type": "Point",
        "coordinates": [
          127.370041,
          36.302521
        ]
      }
    },
    {
      "type": "Feature",
      "properties": {
        "VERSION": 20150128,
        "NODE_ID": "553800141",
        "NAME": "서부간선삼거리",
        "GROUP": "SA 49"
      },
      "geometry": {
        "type": "Point",
        "coordinates": [
          127.368927,
          36.313122
        ]
      }
    },
    {
      "type": "Feature",
      "properties": {
        "VERSION": 20150128,
        "NODE_ID": "553800205",
        "NAME": "코스모스아파트사거리",
        "GROUP": "SA 115"
      },
      "geometry": {
        "type": "Point",
        "coordinates": [
          127.365005,
          36.298874
        ]
      }
    },
    {
      "type": "Feature",
      "properties": {
        "VERSION": 20150128,
        "NODE_ID": "553800209",
        "NAME": "진잠초교네거리",
        "GROUP": " "
      },
      "geometry": {
        "type": "Point",
        "coordinates": [
          127.316132,
          36.298599
        ]
      }
    },
    {
      "type": "Feature",
      "properties": {
        "VERSION": 20150128,
        "NODE_ID": "553800230",
        "NAME": "진잠초교네거리",
        "GROUP": " "
      },
      "geometry": {
        "type": "Point",
        "coordinates": [
          127.31588,
          36.299297
        ]
      }
    },
    {
      "type": "Feature",
      "properties": {
        "VERSION": 20150128,
        "NODE_ID": "553800263",
        "NAME": "정림우체국삼거리",
        "GROUP": "SA 115"
      },
      "geometry": {
        "type": "Point",
        "coordinates": [
          127.367043,
          36.300667
        ]
      }
    },
    {
      "type": "Feature",
      "properties": {
        "VERSION": 20150128,
        "NODE_ID": "553800287",
        "NAME": "대정홈플러스삼거리",
        "GROUP": " "
      },
      "geometry": {
        "type": "Point",
        "coordinates": [
          127.319916,
          36.313225
        ]
      }
    },
    {
      "type": "Feature",
      "properties": {
        "VERSION": 20150128,
        "NODE_ID": "553800315",
        "NAME": "가수원초교삼거리",
        "GROUP": "SA 92"
      },
      "geometry": {
        "type": "Point",
        "coordinates": [
          127.354385,
          36.302181
        ]
      }
    },
    {
      "type": "Feature",
      "properties": {
        "VERSION": 20150128,
        "NODE_ID": "553800317",
        "NAME": "정림초교네거리",
        "GROUP": " "
      },
      "geometry": {
        "type": "Point",
        "coordinates": [
          127.366165,
          36.302544
        ]
      }
    },
    {
      "type": "Feature",
      "properties": {
        "VERSION": 20150128,
        "NODE_ID": "553800340",
        "NAME": "정림초교삼거리",
        "GROUP": " "
      },
      "geometry": {
        "type": "Point",
        "coordinates": [
          127.365768,
          36.303993
        ]
      }
    },
    {
      "type": "Feature",
      "properties": {
        "VERSION": 20150128,
        "NODE_ID": "553800346",
        "NAME": "정림초교삼거리",
        "GROUP": " "
      },
      "geometry": {
        "type": "Point",
        "coordinates": [
          127.365654,
          36.304428
        ]
      }
    },
    {
      "type": "Feature",
      "properties": {
        "VERSION": 20150128,
        "NODE_ID": "553800354",
        "NAME": "솔마루네거리",
        "GROUP": " "
      },
      "geometry": {
        "type": "Point",
        "coordinates": [
          127.31694,
          36.30328
        ]
      }
    },
    {
      "type": "Feature",
      "properties": {
        "VERSION": 20150128,
        "NODE_ID": "553800356",
        "NAME": "솔마루네거리",
        "GROUP": " "
      },
      "geometry": {
        "type": "Point",
        "coordinates": [
          127.318153,
          36.303623
        ]
      }
    },
    {
      "type": "Feature",
      "properties": {
        "VERSION": 20150128,
        "NODE_ID": "553800391",
        "NAME": "구봉농장삼거리",
        "GROUP": "SA 124"
      },
      "geometry": {
        "type": "Point",
        "coordinates": [
          127.320038,
          36.288895
        ]
      }
    },
    {
      "type": "Feature",
      "properties": {
        "VERSION": 20150128,
        "NODE_ID": "553800440",
        "NAME": "교촌삼거리",
        "GROUP": "SA 55"
      },
      "geometry": {
        "type": "Point",
        "coordinates": [
          127.320549,
          36.304302
        ]
      }
    },
    {
      "type": "Feature",
      "properties": {
        "VERSION": 20150128,
        "NODE_ID": "553800455",
        "NAME": "대정삼거리",
        "GROUP": "SA 55"
      },
      "geometry": {
        "type": "Point",
        "coordinates": [
          127.318382,
          36.309498
        ]
      }
    },
    {
      "type": "Feature",
      "properties": {
        "VERSION": 20150128,
        "NODE_ID": "553800467",
        "NAME": "관저3지구네거리",
        "GROUP": "SA 69"
      },
      "geometry": {
        "type": "Point",
        "coordinates": [
          127.340607,
          36.30022
        ]
      }
    },
    {
      "type": "Feature",
      "properties": {
        "VERSION": 20150128,
        "NODE_ID": "553800468",
        "NAME": "느리울유치원네거리",
        "GROUP": "SA 69"
      },
      "geometry": {
        "type": "Point",
        "coordinates": [
          127.338409,
          36.298939
        ]
      }
    },
    {
      "type": "Feature",
      "properties": {
        "VERSION": 20150128,
        "NODE_ID": "553800471",
        "NAME": "느리울12단지네거리",
        "GROUP": "SA 69"
      },
      "geometry": {
        "type": "Point",
        "coordinates": [
          127.340561,
          36.297821
        ]
      }
    },
    {
      "type": "Feature",
      "properties": {
        "VERSION": 20150128,
        "NODE_ID": "553800472",
        "NAME": "관저주공삼거리",
        "GROUP": "SA 69"
      },
      "geometry": {
        "type": "Point",
        "coordinates": [
          127.343376,
          36.299152
        ]
      }
    },
    {
      "type": "Feature",
      "properties": {
        "VERSION": 20150128,
        "NODE_ID": "553800532",
        "NAME": "배재대(단)",
        "GROUP": "SA 49"
      },
      "geometry": {
        "type": "Point",
        "coordinates": [
          127.371284,
          36.316845
        ]
      }
    },
    {
      "type": "Feature",
      "properties": {
        "VERSION": 20150128,
        "NODE_ID": "553800549",
        "NAME": "조달청네거리",
        "GROUP": "SA 49"
      },
      "geometry": {
        "type": "Point",
        "coordinates": [
          127.371033,
          36.319305
        ]
      }
    },
    {
      "type": "Feature",
      "properties": {
        "VERSION": 20150128,
        "NODE_ID": "553800552",
        "NAME": "씨아골네거리",
        "GROUP": "SA 55"
      },
      "geometry": {
        "type": "Point",
        "coordinates": [
          127.313858,
          36.319859
        ]
      }
    },
    {
      "type": "Feature",
      "properties": {
        "VERSION": 20150128,
        "NODE_ID": "553800559",
        "NAME": "경남APT삼거리",
        "GROUP": "SA 49"
      },
      "geometry": {
        "type": "Point",
        "coordinates": [
          127.370377,
          36.321022
        ]
      }
    },
    {
      "type": "Feature",
      "properties": {
        "VERSION": 20150128,
        "NODE_ID": "553800574",
        "NAME": "경남아파트네거리",
        "GROUP": "SA 49"
      },
      "geometry": {
        "type": "Point",
        "coordinates": [
          127.370232,
          36.322502
        ]
      }
    },
    {
      "type": "Feature",
      "properties": {
        "VERSION": 20150128,
        "NODE_ID": "553800589",
        "NAME": "대아APT(단)",
        "GROUP": "SA 49"
      },
      "geometry": {
        "type": "Point",
        "coordinates": [
          127.370369,
          36.325096
        ]
      }
    },
    {
      "type": "Feature",
      "properties": {
        "VERSION": 20150128,
        "NODE_ID": "553800594",
        "NAME": "서대전여고네거리",
        "GROUP": "SA 49"
      },
      "geometry": {
        "type": "Point",
        "coordinates": [
          127.370407,
          36.326237
        ]
      }
    },
    {
      "type": "Feature",
      "properties": {
        "VERSION": 20150128,
        "NODE_ID": "553800610",
        "NAME": "변전소(단)",
        "GROUP": "SA 29"
      },
      "geometry": {
        "type": "Point",
        "coordinates": [
          127.372581,
          36.327454
        ]
      }
    },
    {
      "type": "Feature",
      "properties": {
        "VERSION": 20150128,
        "NODE_ID": "553800631",
        "NAME": "수정재네거리",
        "GROUP": "SA 49"
      },
      "geometry": {
        "type": "Point",
        "coordinates": [
          127.370598,
          36.329292
        ]
      }
    },
    {
      "type": "Feature",
      "properties": {
        "VERSION": 20150128,
        "NODE_ID": "553800701",
        "NAME": "학하초교삼거리",
        "GROUP": " "
      },
      "geometry": {
        "type": "Point",
        "coordinates": [
          127.312813,
          36.335033
        ]
      }
    },
    {
      "type": "Feature",
      "properties": {
        "VERSION": 20150128,
        "NODE_ID": "553800740",
        "NAME": "승상골삼거리",
        "GROUP": "SA 94"
      },
      "geometry": {
        "type": "Point",
        "coordinates": [
          127.338814,
          36.25351
        ]
      }
    },
    {
      "type": "Feature",
      "properties": {
        "VERSION": 20150128,
        "NODE_ID": "553800748",
        "NAME": "원내네거리",
        "GROUP": " "
      },
      "geometry": {
        "type": "Point",
        "coordinates": [
          127.317871,
          36.299591
        ]
      }
    },
    {
      "type": "Feature",
      "properties": {
        "VERSION": 20150128,
        "NODE_ID": "553800758",
        "NAME": "교촌네거리",
        "GROUP": "SA 32"
      },
      "geometry": {
        "type": "Point",
        "coordinates": [
          127.322586,
          36.299843
        ]
      }
    },
    {
      "type": "Feature",
      "properties": {
        "VERSION": 20150128,
        "NODE_ID": "553800806",
        "NAME": "원내차고지삼거리",
        "GROUP": " "
      },
      "geometry": {
        "type": "Point",
        "coordinates": [
          127.318916,
          36.293755
        ]
      }
    },
    {
      "type": "Feature",
      "properties": {
        "VERSION": 20150128,
        "NODE_ID": "553800813",
        "NAME": "관저4지구네거리",
        "GROUP": "SA 69"
      },
      "geometry": {
        "type": "Point",
        "coordinates": [
          127.326591,
          36.29715
        ]
      }
    },
    {
      "type": "Feature",
      "properties": {
        "VERSION": 20150128,
        "NODE_ID": "553800816",
        "NAME": "관저2동주민센터네거리",
        "GROUP": "SA 69"
      },
      "geometry": {
        "type": "Point",
        "coordinates": [
          127.334869,
          36.298897
        ]
      }
    },
    {
      "type": "Feature",
      "properties": {
        "VERSION": 20150128,
        "NODE_ID": "553800817",
        "NAME": "구봉초교네거리",
        "GROUP": "SA 69"
      },
      "geometry": {
        "type": "Point",
        "coordinates": [
          127.329353,
          36.298908
        ]
      }
    },
    {
      "type": "Feature",
      "properties": {
        "VERSION": 20150128,
        "NODE_ID": "553800819",
        "NAME": "관저타워네거리",
        "GROUP": "SA 69"
      },
      "geometry": {
        "type": "Point",
        "coordinates": [
          127.340584,
          36.299038
        ]
      }
    },
    {
      "type": "Feature",
      "properties": {
        "VERSION": 20150128,
        "NODE_ID": "553800820",
        "NAME": "느리울아파트네거리",
        "GROUP": "SA 69"
      },
      "geometry": {
        "type": "Point",
        "coordinates": [
          127.344757,
          36.299194
        ]
      }
    },
    {
      "type": "Feature",
      "properties": {
        "VERSION": 20150128,
        "NODE_ID": "553800835",
        "NAME": "건양대병원삼거리(47번3)",
        "GROUP": "SA 106"
      },
      "geometry": {
        "type": "Point",
        "coordinates": [
          127.340668,
          36.306282
        ]
      }
    },
    {
      "type": "Feature",
      "properties": {
        "VERSION": 20150128,
        "NODE_ID": "553800933",
        "NAME": "삼성운전학원(단)",
        "GROUP": "SA 115"
      },
      "geometry": {
        "type": "Point",
        "coordinates": [
          127.369102,
          36.301922
        ]
      }
    },
    {
      "type": "Feature",
      "properties": {
        "VERSION": 20150128,
        "NODE_ID": "553800935",
        "NAME": "외마루들네거리",
        "GROUP": "SA 55"
      },
      "geometry": {
        "type": "Point",
        "coordinates": [
          127.317192,
          36.311775
        ]
      }
    },
    {
      "type": "Feature",
      "properties": {
        "VERSION": 20150128,
        "NODE_ID": "553800943",
        "NAME": "대정물류센터네거리",
        "GROUP": " "
      },
      "geometry": {
        "type": "Point",
        "coordinates": [
          127.319931,
          36.316547
        ]
      }
    },
    {
      "type": "Feature",
      "properties": {
        "VERSION": 20150128,
        "NODE_ID": "553801061",
        "NAME": "기성PB네거리",
        "GROUP": " "
      },
      "geometry": {
        "type": "Point",
        "coordinates": [
          127.34259,
          36.255253
        ]
      }
    },
    {
      "type": "Feature",
      "properties": {
        "VERSION": 20150128,
        "NODE_ID": "553801088",
        "NAME": "구봉마을8단지(단)",
        "GROUP": "SA 69"
      },
      "geometry": {
        "type": "Point",
        "coordinates": [
          127.331261,
          36.298927
        ]
      }
    },
    {
      "type": "Feature",
      "properties": {
        "VERSION": 20150128,
        "NODE_ID": "553801091",
        "NAME": "관저우체국(단)",
        "GROUP": "SA 106"
      },
      "geometry": {
        "type": "Point",
        "coordinates": [
          127.337051,
          36.303051
        ]
      }
    },
    {
      "type": "Feature",
      "properties": {
        "VERSION": 20150128,
        "NODE_ID": "553801118",
        "NAME": "대정홈플러스삼거리",
        "GROUP": " "
      },
      "geometry": {
        "type": "Point",
        "coordinates": [
          127.319939,
          36.314522
        ]
      }
    },
    {
      "type": "Feature",
      "properties": {
        "VERSION": 20150128,
        "NODE_ID": "553801158",
        "NAME": "교촌초교삼거리",
        "GROUP": " "
      },
      "geometry": {
        "type": "Point",
        "coordinates": [
          127.317581,
          36.305019
        ]
      }
    },
    {
      "type": "Feature",
      "properties": {
        "VERSION": 20150128,
        "NODE_ID": "553801297",
        "NAME": "금동초교네거리",
        "GROUP": "SA 69"
      },
      "geometry": {
        "type": "Point",
        "coordinates": [
          127.327621,
          36.298279
        ]
      }
    },
    {
      "type": "Feature",
      "properties": {
        "VERSION": 20150128,
        "NODE_ID": "553801371",
        "NAME": "관저더샵1단지네거리",
        "GROUP": " "
      },
      "geometry": {
        "type": "Point",
        "coordinates": [
          127.33046,
          36.294273
        ]
      }
    },
    {
      "type": "Feature",
      "properties": {
        "VERSION": 20150128,
        "NODE_ID": "553801397",
        "NAME": "해맑음교회삼거리",
        "GROUP": "SA 69"
      },
      "geometry": {
        "type": "Point",
        "coordinates": [
          127.344765,
          36.301846
        ]
      }
    },
    {
      "type": "Feature",
      "properties": {
        "VERSION": 20150128,
        "NODE_ID": "553801423",
        "NAME": "관저대자연(단)",
        "GROUP": "SA 106"
      },
      "geometry": {
        "type": "Point",
        "coordinates": [
          127.337074,
          36.306389
        ]
      }
    },
    {
      "type": "Feature",
      "properties": {
        "VERSION": 20150128,
        "NODE_ID": "553801500",
        "NAME": "원앙초교(단)",
        "GROUP": " "
      },
      "geometry": {
        "type": "Point",
        "coordinates": [
          127.337067,
          36.309658
        ]
      }
    },
    {
      "type": "Feature",
      "properties": {
        "VERSION": 20150128,
        "NODE_ID": "553801663",
        "NAME": "복수고교삼거리",
        "GROUP": "SA 73"
      },
      "geometry": {
        "type": "Point",
        "coordinates": [
          127.371307,
          36.304928
        ]
      }
    },
    {
      "type": "Feature",
      "properties": {
        "VERSION": 20150128,
        "NODE_ID": "553801819",
        "NAME": "지선농장(단)",
        "GROUP": "SA 55"
      },
      "geometry": {
        "type": "Point",
        "coordinates": [
          127.312859,
          36.322754
        ]
      }
    },
    {
      "type": "Feature",
      "properties": {
        "VERSION": 20150128,
        "NODE_ID": "553802556",
        "NAME": "정림중(단)",
        "GROUP": "SA 115"
      },
      "geometry": {
        "type": "Point",
        "coordinates": [
          127.361893,
          36.293804
        ]
      }
    },
    {
      "type": "Feature",
      "properties": {
        "VERSION": 20150128,
        "NODE_ID": "553802606",
        "NAME": "가수원삼거리",
        "GROUP": "SA 92"
      },
      "geometry": {
        "type": "Point",
        "coordinates": [
          127.356651,
          36.296257
        ]
      }
    },
    {
      "type": "Feature",
      "properties": {
        "VERSION": 20150128,
        "NODE_ID": "553802613",
        "NAME": "대전공고삼거리",
        "GROUP": " "
      },
      "geometry": {
        "type": "Point",
        "coordinates": [
          127.317139,
          36.295422
        ]
      }
    },
    {
      "type": "Feature",
      "properties": {
        "VERSION": 20150128,
        "NODE_ID": "553802642",
        "NAME": "내동중(단)",
        "GROUP": "SA 29"
      },
      "geometry": {
        "type": "Point",
        "coordinates": [
          127.371277,
          36.332062
        ]
      }
    },
    {
      "type": "Feature",
      "properties": {
        "VERSION": 20150128,
        "NODE_ID": "553802655",
        "NAME": "샘물타운네거리",
        "GROUP": " "
      },
      "geometry": {
        "type": "Point",
        "coordinates": [
          127.320076,
          36.299843
        ]
      }
    },
    {
      "type": "Feature",
      "properties": {
        "VERSION": 20150128,
        "NODE_ID": "553802666",
        "NAME": "도마중삼거리",
        "GROUP": "SA 49"
      },
      "geometry": {
        "type": "Point",
        "coordinates": [
          127.371338,
          36.318115
        ]
      }
    },
    {
      "type": "Feature",
      "properties": {
        "VERSION": 20150128,
        "NODE_ID": "553802671",
        "NAME": "관저주공네거리",
        "GROUP": "SA 69"
      },
      "geometry": {
        "type": "Point",
        "coordinates": [
          127.34169,
          36.299072
        ]
      }
    },
    {
      "type": "Feature",
      "properties": {
        "VERSION": 20150128,
        "NODE_ID": "553802674",
        "NAME": "신선마을(단)",
        "GROUP": "SA 32"
      },
      "geometry": {
        "type": "Point",
        "coordinates": [
          127.334869,
          36.300621
        ]
      }
    },
    {
      "type": "Feature",
      "properties": {
        "VERSION": 20150128,
        "NODE_ID": "553802930",
        "NAME": "흥도초교후문네거리",
        "GROUP": "SA 102"
      },
      "geometry": {
        "type": "Point",
        "coordinates": [
          127.338165,
          36.334839
        ]
      }
    },
    {
      "type": "Feature",
      "properties": {
        "VERSION": 20150128,
        "NODE_ID": "553802967",
        "NAME": "구봉정삼거리(A2-3)",
        "GROUP": "SA 69"
      },
      "geometry": {
        "type": "Point",
        "coordinates": [
          127.33477,
          36.292191
        ]
      }
    },
    {
      "type": "Feature",
      "properties": {
        "VERSION": 20150128,
        "NODE_ID": "553803011",
        "NAME": "용소네거리",
        "GROUP": "SA 106"
      },
      "geometry": {
        "type": "Point",
        "coordinates": [
          127.346657,
          36.311596
        ]
      }
    },
    {
      "type": "Feature",
      "properties": {
        "VERSION": 20150128,
        "NODE_ID": "553803012",
        "NAME": "도안15단지(단)",
        "GROUP": "SA 105"
      },
      "geometry": {
        "type": "Point",
        "coordinates": [
          127.345787,
          36.320877
        ]
      }
    },
    {
      "type": "Feature",
      "properties": {
        "VERSION": 20150128,
        "NODE_ID": "553803014",
        "NAME": "도안초교삼거리",
        "GROUP": "SA 105"
      },
      "geometry": {
        "type": "Point",
        "coordinates": [
          127.343925,
          36.320877
        ]
      }
    },
    {
      "type": "Feature",
      "properties": {
        "VERSION": 20150128,
        "NODE_ID": "553803016",
        "NAME": "수목토후문단일로",
        "GROUP": " "
      },
      "geometry": {
        "type": "Point",
        "coordinates": [
          127.344048,
          36.319557
        ]
      }
    },
    {
      "type": "Feature",
      "properties": {
        "VERSION": 20150128,
        "NODE_ID": "553803020",
        "NAME": "원앙마을삼거리",
        "GROUP": "SA 106"
      },
      "geometry": {
        "type": "Point",
        "coordinates": [
          127.340378,
          36.309147
        ]
      }
    },
    {
      "type": "Feature",
      "properties": {
        "VERSION": 20150128,
        "NODE_ID": "553803035",
        "NAME": "흥도초교네거리",
        "GROUP": "SA 102"
      },
      "geometry": {
        "type": "Point",
        "coordinates": [
          127.338158,
          36.333508
        ]
      }
    },
    {
      "type": "Feature",
      "properties": {
        "VERSION": 20150128,
        "NODE_ID": "553803036",
        "NAME": "도안12단지(단)(23-2번)",
        "GROUP": "SA 109"
      },
      "geometry": {
        "type": "Point",
        "coordinates": [
          127.340942,
          36.333504
        ]
      }
    },
    {
      "type": "Feature",
      "properties": {
        "VERSION": 20150128,
        "NODE_ID": "553803059",
        "NAME": "다온숲삼거리(A6-3)",
        "GROUP": " "
      },
      "geometry": {
        "type": "Point",
        "coordinates": [
          127.340492,
          36.292118
        ]
      }
    },
    {
      "type": "Feature",
      "properties": {
        "VERSION": 20150128,
        "NODE_ID": "553803063",
        "NAME": "어반힐스삼거리(A7-3)",
        "GROUP": " "
      },
      "geometry": {
        "type": "Point",
        "coordinates": [
          127.344498,
          36.295425
        ]
      }
    },
    {
      "type": "Feature",
      "properties": {
        "VERSION": 20150128,
        "NODE_ID": "553803102",
        "NAME": "목원대네거리",
        "GROUP": "SA 104"
      },
      "geometry": {
        "type": "Point",
        "coordinates": [
          127.33815,
          36.330147
        ]
      }
    },
    {
      "type": "Feature",
      "properties": {
        "VERSION": 20150128,
        "NODE_ID": "553803119",
        "NAME": "도안18단지(단)",
        "GROUP": "SA 105"
      },
      "geometry": {
        "type": "Point",
        "coordinates": [
          127.348022,
          36.307964
        ]
      }
    },
    {
      "type": "Feature",
      "properties": {
        "VERSION": 20150128,
        "NODE_ID": "553803124",
        "NAME": "도안18단지(단)",
        "GROUP": "SA 105"
      },
      "geometry": {
        "type": "Point",
        "coordinates": [
          127.347687,
          36.308861
        ]
      }
    },
    {
      "type": "Feature",
      "properties": {
        "VERSION": 20150128,
        "NODE_ID": "553803259",
        "NAME": "도안중삼거리",
        "GROUP": "SA 105"
      },
      "geometry": {
        "type": "Point",
        "coordinates": [
          127.345306,
          36.317112
        ]
      }
    },
    {
      "type": "Feature",
      "properties": {
        "VERSION": 20150128,
        "NODE_ID": "553803311",
        "NAME": "도안12단지삼거리",
        "GROUP": "SA 109"
      },
      "geometry": {
        "type": "Point",
        "coordinates": [
          127.34066,
          36.334324
        ]
      }
    },
    {
      "type": "Feature",
      "properties": {
        "VERSION": 20150128,
        "NODE_ID": "553803314",
        "NAME": "흥도초교(단)(23-1번)",
        "GROUP": "SA 109"
      },
      "geometry": {
        "type": "Point",
        "coordinates": [
          127.339394,
          36.334835
        ]
      }
    },
    {
      "type": "Feature",
      "properties": {
        "VERSION": 20150128,
        "NODE_ID": "553803323",
        "NAME": "도안고교(단)",
        "GROUP": "SA 102"
      },
      "geometry": {
        "type": "Point",
        "coordinates": [
          127.338181,
          36.336124
        ]
      }
    },
    {
      "type": "Feature",
      "properties": {
        "VERSION": 20150128,
        "NODE_ID": "553803426",
        "NAME": "서일여고네거리",
        "GROUP": "SA 69"
      },
      "geometry": {
        "type": "Point",
        "coordinates": [
          127.323547,
          36.294807
        ]
      }
    },
    {
      "type": "Feature",
      "properties": {
        "VERSION": 20150128,
        "NODE_ID": "553803449",
        "NAME": "마치광장(단)",
        "GROUP": "SA 69"
      },
      "geometry": {
        "type": "Point",
        "coordinates": [
          127.337502,
          36.296375
        ]
      }
    },
    {
      "type": "Feature",
      "properties": {
        "VERSION": 20150128,
        "NODE_ID": "553803526",
        "NAME": "어린이공원(단)",
        "GROUP": "SA 43"
      },
      "geometry": {
        "type": "Point",
        "coordinates": [
          127.328064,
          36.293499
        ]
      }
    },
    {
      "type": "Feature",
      "properties": {
        "VERSION": 20150128,
        "NODE_ID": "553803544",
        "NAME": "29번",
        "GROUP": " "
      },
      "geometry": {
        "type": "Point",
        "coordinates": [
          127.335907,
          36.330135
        ]
      }
    },
    {
      "type": "Feature",
      "properties": {
        "VERSION": 20150128,
        "NODE_ID": "553803697",
        "NAME": "관저예미지네거리",
        "GROUP": " "
      },
      "geometry": {
        "type": "Point",
        "coordinates": [
          127.334801,
          36.294933
        ]
      }
    },
    {
      "type": "Feature",
      "properties": {
        "VERSION": 20150128,
        "NODE_ID": "553803704",
        "NAME": "선유초교삼거리",
        "GROUP": " "
      },
      "geometry": {
        "type": "Point",
        "coordinates": [
          127.340553,
          36.2952
        ]
      }
    },
    {
      "type": "Feature",
      "properties": {
        "VERSION": 20150128,
        "NODE_ID": "553803714",
        "NAME": "교촌(단)",
        "GROUP": "SA 55"
      },
      "geometry": {
        "type": "Point",
        "coordinates": [
          127.319649,
          36.306458
        ]
      }
    },
    {
      "type": "Feature",
      "properties": {
        "VERSION": 20150128,
        "NODE_ID": "553804659",
        "NAME": "대신물류센터네거리",
        "GROUP": " "
      },
      "geometry": {
        "type": "Point",
        "coordinates": [
          127.318604,
          36.316036
        ]
      }
    },
    {
      "type": "Feature",
      "properties": {
        "VERSION": 20150128,
        "NODE_ID": "553804692",
        "NAME": "도안베르디움삼거리",
        "GROUP": "SA 105"
      },
      "geometry": {
        "type": "Point",
        "coordinates": [
          127.346336,
          36.31245
        ]
      }
    },
    {
      "type": "Feature",
      "properties": {
        "VERSION": 20150128,
        "NODE_ID": "553804787",
        "NAME": "도안17단지(단)",
        "GROUP": "SA 105"
      },
      "geometry": {
        "type": "Point",
        "coordinates": [
          127.345665,
          36.314835
        ]
      }
    },
    {
      "type": "Feature",
      "properties": {
        "VERSION": 20150128,
        "NODE_ID": "553804789",
        "NAME": "도안17단지(단)",
        "GROUP": "SA 105"
      },
      "geometry": {
        "type": "Point",
        "coordinates": [
          127.345497,
          36.316116
        ]
      }
    },
    {
      "type": "Feature",
      "properties": {
        "VERSION": 20150128,
        "NODE_ID": "553804793",
        "NAME": "사진포삼거리",
        "GROUP": " "
      },
      "geometry": {
        "type": "Point",
        "coordinates": [
          127.345894,
          36.263329
        ]
      }
    },
    {
      "type": "Feature",
      "properties": {
        "VERSION": 20150128,
        "NODE_ID": "553804983",
        "NAME": "천년나무APT삼거리",
        "GROUP": "SA 69"
      },
      "geometry": {
        "type": "Point",
        "coordinates": [
          127.34333,
          36.29361
        ]
      }
    },
    {
      "type": "Feature",
      "properties": {
        "VERSION": 20150128,
        "NODE_ID": "553806322",
        "NAME": "가수원역(단)",
        "GROUP": "SA 92"
      },
      "geometry": {
        "type": "Point",
        "coordinates": [
          127.355934,
          36.298931
        ]
      }
    },
    {
      "type": "Feature",
      "properties": {
        "VERSION": 20150128,
        "NODE_ID": "553806337",
        "NAME": "관저더샵2단지삼거리",
        "GROUP": "SA 69"
      },
      "geometry": {
        "type": "Point",
        "coordinates": [
          127.326767,
          36.293888
        ]
      }
    },
    {
      "type": "Feature",
      "properties": {
        "VERSION": 20150128,
        "NODE_ID": "553807403",
        "NAME": "한우물(단)",
        "GROUP": "SA 55"
      },
      "geometry": {
        "type": "Point",
        "coordinates": [
          127.315086,
          36.316284
        ]
      }
    },
    {
      "type": "Feature",
      "properties": {
        "VERSION": 20150128,
        "NODE_ID": "553807446",
        "NAME": "도안중(단)",
        "GROUP": "SA 105"
      },
      "geometry": {
        "type": "Point",
        "coordinates": [
          127.344788,
          36.318157
        ]
      }
    },
    {
      "type": "Feature",
      "properties": {
        "VERSION": 20150128,
        "NODE_ID": "553807462",
        "NAME": "벌말삼거리",
        "GROUP": " "
      },
      "geometry": {
        "type": "Point",
        "coordinates": [
          127.3545,
          36.281727
        ]
      }
    },
    {
      "type": "Feature",
      "properties": {
        "VERSION": 20150128,
        "NODE_ID": "554700397",
        "NAME": "산흥초교(단)",
        "GROUP": "SA 53"
      },
      "geometry": {
        "type": "Point",
        "coordinates": [
          127.44825,
          36.227959
        ]
      }
    },
    {
      "type": "Feature",
      "properties": {
        "VERSION": 20150128,
        "NODE_ID": "554702893",
        "NAME": "하소삼거리",
        "GROUP": "SA 53"
      },
      "geometry": {
        "type": "Point",
        "coordinates": [
          127.442245,
          36.222382
        ]
      }
    },
    {
      "type": "Feature",
      "properties": {
        "VERSION": 20150128,
        "NODE_ID": "554702904",
        "NAME": "하소지구삼거리",
        "GROUP": "SA 53"
      },
      "geometry": {
        "type": "Point",
        "coordinates": [
          127.440826,
          36.218288
        ]
      }
    },
    {
      "type": "Feature",
      "properties": {
        "VERSION": 20150128,
        "NODE_ID": "554702906",
        "NAME": "하소동삼거리",
        "GROUP": "SA 53"
      },
      "geometry": {
        "type": "Point",
        "coordinates": [
          127.441765,
          36.216583
        ]
      }
    },
    {
      "type": "Feature",
      "properties": {
        "VERSION": 20150128,
        "NODE_ID": "554800093",
        "NAME": "산내주공오거리",
        "GROUP": "SA 82"
      },
      "geometry": {
        "type": "Point",
        "coordinates": [
          127.466171,
          36.283894
        ]
      }
    },
    {
      "type": "Feature",
      "properties": {
        "VERSION": 20150128,
        "NODE_ID": "554800108",
        "NAME": "뿌리공원삼거리",
        "GROUP": "SA 26"
      },
      "geometry": {
        "type": "Point",
        "coordinates": [
          127.378128,
          36.286713
        ]
      }
    },
    {
      "type": "Feature",
      "properties": {
        "VERSION": 20150128,
        "NODE_ID": "554800122",
        "NAME": "면허시험장삼거리",
        "GROUP": "SA 39"
      },
      "geometry": {
        "type": "Point",
        "coordinates": [
          127.463242,
          36.290077
        ]
      }
    },
    {
      "type": "Feature",
      "properties": {
        "VERSION": 20150128,
        "NODE_ID": "554800135",
        "NAME": "대성동삼거리",
        "GROUP": "SA 39"
      },
      "geometry": {
        "type": "Point",
        "coordinates": [
          127.460854,
          36.295094
        ]
      }
    },
    {
      "type": "Feature",
      "properties": {
        "VERSION": 20150128,
        "NODE_ID": "554800144",
        "NAME": "대성(단)",
        "GROUP": "SA 39"
      },
      "geometry": {
        "type": "Point",
        "coordinates": [
          127.459938,
          36.297012
        ]
      }
    },
    {
      "type": "Feature",
      "properties": {
        "VERSION": 20150128,
        "NODE_ID": "554800165",
        "NAME": "옥계종점(단)",
        "GROUP": "SA 39"
      },
      "geometry": {
        "type": "Point",
        "coordinates": [
          127.455429,
          36.297836
        ]
      }
    },
    {
      "type": "Feature",
      "properties": {
        "VERSION": 20150128,
        "NODE_ID": "554800169",
        "NAME": "신계초교삼거리",
        "GROUP": "SA 80"
      },
      "geometry": {
        "type": "Point",
        "coordinates": [
          127.378799,
          36.302422
        ]
      }
    },
    {
      "type": "Feature",
      "properties": {
        "VERSION": 20150128,
        "NODE_ID": "554800175",
        "NAME": "옥계종점(단)",
        "GROUP": "SA 39"
      },
      "geometry": {
        "type": "Point",
        "coordinates": [
          127.454697,
          36.298702
        ]
      }
    },
    {
      "type": "Feature",
      "properties": {
        "VERSION": 20150128,
        "NODE_ID": "554800179",
        "NAME": "초록마을삼거리",
        "GROUP": "SA 78"
      },
      "geometry": {
        "type": "Point",
        "coordinates": [
          127.382027,
          36.300644
        ]
      }
    },
    {
      "type": "Feature",
      "properties": {
        "VERSION": 20150128,
        "NODE_ID": "554800194",
        "NAME": "신계초교네거리",
        "GROUP": "SA 80"
      },
      "geometry": {
        "type": "Point",
        "coordinates": [
          127.378693,
          36.300781
        ]
      }
    },
    {
      "type": "Feature",
      "properties": {
        "VERSION": 20150128,
        "NODE_ID": "554800196",
        "NAME": "산성초교(단)",
        "GROUP": "SA 26"
      },
      "geometry": {
        "type": "Point",
        "coordinates": [
          127.385422,
          36.300095
        ]
      }
    },
    {
      "type": "Feature",
      "properties": {
        "VERSION": 20150128,
        "NODE_ID": "554800198",
        "NAME": "옥계(단)",
        "GROUP": "SA 39"
      },
      "geometry": {
        "type": "Point",
        "coordinates": [
          127.453369,
          36.300232
        ]
      }
    },
    {
      "type": "Feature",
      "properties": {
        "VERSION": 20150128,
        "NODE_ID": "554800219",
        "NAME": "산성PB네거리",
        "GROUP": "SA 26"
      },
      "geometry": {
        "type": "Point",
        "coordinates": [
          127.386017,
          36.301655
        ]
      }
    },
    {
      "type": "Feature",
      "properties": {
        "VERSION": 20150128,
        "NODE_ID": "554800249",
        "NAME": "예미지삼거리",
        "GROUP": "SA 78"
      },
      "geometry": {
        "type": "Point",
        "coordinates": [
          127.381226,
          36.302319
        ]
      }
    },
    {
      "type": "Feature",
      "properties": {
        "VERSION": 20150128,
        "NODE_ID": "554800270",
        "NAME": "옥계삼거리",
        "GROUP": "SA 39"
      },
      "geometry": {
        "type": "Point",
        "coordinates": [
          127.450073,
          36.304062
        ]
      }
    },
    {
      "type": "Feature",
      "properties": {
        "VERSION": 20150128,
        "NODE_ID": "554800288",
        "NAME": "한밭가든(단)",
        "GROUP": "SA 73"
      },
      "geometry": {
        "type": "Point",
        "coordinates": [
          127.38443,
          36.304531
        ]
      }
    },
    {
      "type": "Feature",
      "properties": {
        "VERSION": 20150128,
        "NODE_ID": "554800295",
        "NAME": "산성네거리",
        "GROUP": "SA 26"
      },
      "geometry": {
        "type": "Point",
        "coordinates": [
          127.38623,
          36.304607
        ]
      }
    },
    {
      "type": "Feature",
      "properties": {
        "VERSION": 20150128,
        "NODE_ID": "554800304",
        "NAME": "산성시장(단)",
        "GROUP": "SA 73"
      },
      "geometry": {
        "type": "Point",
        "coordinates": [
          127.387527,
          36.304996
        ]
      }
    },
    {
      "type": "Feature",
      "properties": {
        "VERSION": 20150128,
        "NODE_ID": "554800309",
        "NAME": "산성성당삼거리",
        "GROUP": "SA 73"
      },
      "geometry": {
        "type": "Point",
        "coordinates": [
          127.392899,
          36.305347
        ]
      }
    },
    {
      "type": "Feature",
      "properties": {
        "VERSION": 20150128,
        "NODE_ID": "554800310",
        "NAME": "동양맨션(단)",
        "GROUP": "SA 81"
      },
      "geometry": {
        "type": "Point",
        "coordinates": [
          127.398323,
          36.305592
        ]
      }
    },
    {
      "type": "Feature",
      "properties": {
        "VERSION": 20150128,
        "NODE_ID": "554800316",
        "NAME": "극동APT삼거리",
        "GROUP": " "
      },
      "geometry": {
        "type": "Point",
        "coordinates": [
          127.401665,
          36.30587
        ]
      }
    },
    {
      "type": "Feature",
      "properties": {
        "VERSION": 20150128,
        "NODE_ID": "554800321",
        "NAME": "호동우체국(단)",
        "GROUP": "SA 39"
      },
      "geometry": {
        "type": "Point",
        "coordinates": [
          127.448891,
          36.305416
        ]
      }
    },
    {
      "type": "Feature",
      "properties": {
        "VERSION": 20150128,
        "NODE_ID": "554800327",
        "NAME": "오량네거리",
        "GROUP": "SA 73"
      },
      "geometry": {
        "type": "Point",
        "coordinates": [
          127.38028,
          36.305679
        ]
      }
    },
    {
      "type": "Feature",
      "properties": {
        "VERSION": 20150128,
        "NODE_ID": "554800331",
        "NAME": "가오주공네거리",
        "GROUP": "SA 851"
      },
      "geometry": {
        "type": "Point",
        "coordinates": [
          127.452255,
          36.305832
        ]
      }
    },
    {
      "type": "Feature",
      "properties": {
        "VERSION": 20150128,
        "NODE_ID": "554800333",
        "NAME": "산성동사무소(단)",
        "GROUP": "SA 26"
      },
      "geometry": {
        "type": "Point",
        "coordinates": [
          127.386604,
          36.305737
        ]
      }
    },
    {
      "type": "Feature",
      "properties": {
        "VERSION": 20150128,
        "NODE_ID": "554800344",
        "NAME": "보성초교(단)",
        "GROUP": "SA 81"
      },
      "geometry": {
        "type": "Point",
        "coordinates": [
          127.394524,
          36.306164
        ]
      }
    },
    {
      "type": "Feature",
      "properties": {
        "VERSION": 20150128,
        "NODE_ID": "554800385",
        "NAME": "호동네거리",
        "GROUP": "SA 39"
      },
      "geometry": {
        "type": "Point",
        "coordinates": [
          127.447617,
          36.306732
        ]
      }
    },
    {
      "type": "Feature",
      "properties": {
        "VERSION": 20150128,
        "NODE_ID": "554800400",
        "NAME": "당대가도교네거리",
        "GROUP": "SA 81"
      },
      "geometry": {
        "type": "Point",
        "coordinates": [
          127.394165,
          36.307045
        ]
      }
    },
    {
      "type": "Feature",
      "properties": {
        "VERSION": 20150128,
        "NODE_ID": "554800429",
        "NAME": "석교PB(단)",
        "GROUP": "SA 39"
      },
      "geometry": {
        "type": "Point",
        "coordinates": [
          127.445908,
          36.307663
        ]
      }
    },
    {
      "type": "Feature",
      "properties": {
        "VERSION": 20150128,
        "NODE_ID": "554800449",
        "NAME": "석교초교(단)",
        "GROUP": "SA 39"
      },
      "geometry": {
        "type": "Point",
        "coordinates": [
          127.444641,
          36.308296
        ]
      }
    },
    {
      "type": "Feature",
      "properties": {
        "VERSION": 20150128,
        "NODE_ID": "554800527",
        "NAME": "한밭도서관정문네거리",
        "GROUP": "SA 81"
      },
      "geometry": {
        "type": "Point",
        "coordinates": [
          127.40815,
          36.309456
        ]
      }
    },
    {
      "type": "Feature",
      "properties": {
        "VERSION": 20150128,
        "NODE_ID": "554800531",
        "NAME": "산성우성APT(단)",
        "GROUP": "SA 81"
      },
      "geometry": {
        "type": "Point",
        "coordinates": [
          127.393173,
          36.309525
        ]
      }
    },
    {
      "type": "Feature",
      "properties": {
        "VERSION": 20150128,
        "NODE_ID": "554800545",
        "NAME": "천석교(단)",
        "GROUP": "SA 39"
      },
      "geometry": {
        "type": "Point",
        "coordinates": [
          127.442978,
          36.309799
        ]
      }
    },
    {
      "type": "Feature",
      "properties": {
        "VERSION": 20150128,
        "NODE_ID": "554800551",
        "NAME": "머티네거리",
        "GROUP": "SA 10"
      },
      "geometry": {
        "type": "Point",
        "coordinates": [
          127.388123,
          36.309895
        ]
      }
    },
    {
      "type": "Feature",
      "properties": {
        "VERSION": 20150128,
        "NODE_ID": "554800552",
        "NAME": "천사유치원(단)",
        "GROUP": "SA 52"
      },
      "geometry": {
        "type": "Point",
        "coordinates": [
          127.456413,
          36.315933
        ]
      }
    },
    {
      "type": "Feature",
      "properties": {
        "VERSION": 20150128,
        "NODE_ID": "554800575",
        "NAME": "머티네거리",
        "GROUP": "SA 10"
      },
      "geometry": {
        "type": "Point",
        "coordinates": [
          127.389748,
          36.310249
        ]
      }
    },
    {
      "type": "Feature",
      "properties": {
        "VERSION": 20150128,
        "NODE_ID": "554800577",
        "NAME": "석교(단)",
        "GROUP": "SA 39"
      },
      "geometry": {
        "type": "Point",
        "coordinates": [
          127.440712,
          36.310253
        ]
      }
    },
    {
      "type": "Feature",
      "properties": {
        "VERSION": 20150128,
        "NODE_ID": "554800592",
        "NAME": "문성초교(단)",
        "GROUP": "SA 10"
      },
      "geometry": {
        "type": "Point",
        "coordinates": [
          127.390991,
          36.310574
        ]
      }
    },
    {
      "type": "Feature",
      "properties": {
        "VERSION": 20150128,
        "NODE_ID": "554800626",
        "NAME": "산성우성APT네거리",
        "GROUP": "SA 10"
      },
      "geometry": {
        "type": "Point",
        "coordinates": [
          127.392662,
          36.311005
        ]
      }
    },
    {
      "type": "Feature",
      "properties": {
        "VERSION": 20150128,
        "NODE_ID": "554800637",
        "NAME": "남대전등기소(단)",
        "GROUP": "SA 39"
      },
      "geometry": {
        "type": "Point",
        "coordinates": [
          127.438835,
          36.311192
        ]
      }
    },
    {
      "type": "Feature",
      "properties": {
        "VERSION": 20150128,
        "NODE_ID": "554800653",
        "NAME": "문화우체국(단)",
        "GROUP": "SA 10"
      },
      "geometry": {
        "type": "Point",
        "coordinates": [
          127.394356,
          36.311459
        ]
      }
    },
    {
      "type": "Feature",
      "properties": {
        "VERSION": 20150128,
        "NODE_ID": "554800668",
        "NAME": "천동삼거리",
        "GROUP": "SA 40"
      },
      "geometry": {
        "type": "Point",
        "coordinates": [
          127.445518,
          36.311764
        ]
      }
    },
    {
      "type": "Feature",
      "properties": {
        "VERSION": 20150128,
        "NODE_ID": "554800687",
        "NAME": "문화우체국네거리",
        "GROUP": "SA 10"
      },
      "geometry": {
        "type": "Point",
        "coordinates": [
          127.396095,
          36.311916
        ]
      }
    },
    {
      "type": "Feature",
      "properties": {
        "VERSION": 20150128,
        "NODE_ID": "554800707",
        "NAME": "삼육초교(단)",
        "GROUP": "SA 11"
      },
      "geometry": {
        "type": "Point",
        "coordinates": [
          127.37429,
          36.312275
        ]
      }
    },
    {
      "type": "Feature",
      "properties": {
        "VERSION": 20150128,
        "NODE_ID": "554800721",
        "NAME": "문화초교네거리",
        "GROUP": "SA 10"
      },
      "geometry": {
        "type": "Point",
        "coordinates": [
          127.397972,
          36.312401
        ]
      }
    },
    {
      "type": "Feature",
      "properties": {
        "VERSION": 20150128,
        "NODE_ID": "554800750",
        "NAME": "문화초교네거리",
        "GROUP": "SA 10"
      },
      "geometry": {
        "type": "Point",
        "coordinates": [
          127.39946,
          36.312809
        ]
      }
    },
    {
      "type": "Feature",
      "properties": {
        "VERSION": 20150128,
        "NODE_ID": "554800776",
        "NAME": "보운초교(단)",
        "GROUP": "SA 38"
      },
      "geometry": {
        "type": "Point",
        "coordinates": [
          127.432648,
          36.313358
        ]
      }
    },
    {
      "type": "Feature",
      "properties": {
        "VERSION": 20150128,
        "NODE_ID": "554800785",
        "NAME": "보운초교(단)",
        "GROUP": "SA 38"
      },
      "geometry": {
        "type": "Point",
        "coordinates": [
          127.431503,
          36.313461
        ]
      }
    },
    {
      "type": "Feature",
      "properties": {
        "VERSION": 20150128,
        "NODE_ID": "554800818",
        "NAME": "문창시장(단)",
        "GROUP": "SA 38"
      },
      "geometry": {
        "type": "Point",
        "coordinates": [
          127.436607,
          36.313808
        ]
      }
    },
    {
      "type": "Feature",
      "properties": {
        "VERSION": 20150128,
        "NODE_ID": "554800861",
        "NAME": "문화초교(단)",
        "GROUP": "SA 10"
      },
      "geometry": {
        "type": "Point",
        "coordinates": [
          127.398956,
          36.314205
        ]
      }
    },
    {
      "type": "Feature",
      "properties": {
        "VERSION": 20150128,
        "NODE_ID": "554800881",
        "NAME": "보문(단)",
        "GROUP": "SA 38"
      },
      "geometry": {
        "type": "Point",
        "coordinates": [
          127.427803,
          36.314686
        ]
      }
    },
    {
      "type": "Feature",
      "properties": {
        "VERSION": 20150128,
        "NODE_ID": "554800884",
        "NAME": "문창교(단)",
        "GROUP": "SA 91"
      },
      "geometry": {
        "type": "Point",
        "coordinates": [
          127.438919,
          36.314674
        ]
      }
    },
    {
      "type": "Feature",
      "properties": {
        "VERSION": 20150128,
        "NODE_ID": "554800918",
        "NAME": "동문초교(단)",
        "GROUP": "SA 36"
      },
      "geometry": {
        "type": "Point",
        "coordinates": [
          127.406395,
          36.315006
        ]
      }
    },
    {
      "type": "Feature",
      "properties": {
        "VERSION": 20150128,
        "NODE_ID": "554800934",
        "NAME": "공설운동장네거리",
        "GROUP": "SA 38"
      },
      "geometry": {
        "type": "Point",
        "coordinates": [
          127.433525,
          36.315456
        ]
      }
    },
    {
      "type": "Feature",
      "properties": {
        "VERSION": 20150128,
        "NODE_ID": "554800937",
        "NAME": "유천초교(단)",
        "GROUP": "SA 49"
      },
      "geometry": {
        "type": "Point",
        "coordinates": [
          127.373398,
          36.315453
        ]
      }
    },
    {
      "type": "Feature",
      "properties": {
        "VERSION": 20150128,
        "NODE_ID": "554800952",
        "NAME": "동문초교네거리",
        "GROUP": "SA 36"
      },
      "geometry": {
        "type": "Point",
        "coordinates": [
          127.407799,
          36.315521
        ]
      }
    },
    {
      "type": "Feature",
      "properties": {
        "VERSION": 20150128,
        "NODE_ID": "554800981",
        "NAME": "도마서대전농협네거리",
        "GROUP": "SA 58"
      },
      "geometry": {
        "type": "Point",
        "coordinates": [
          127.378708,
          36.316196
        ]
      }
    },
    {
      "type": "Feature",
      "properties": {
        "VERSION": 20150128,
        "NODE_ID": "554801008",
        "NAME": "도교육위원회삼거리",
        "GROUP": "SA 36"
      },
      "geometry": {
        "type": "Point",
        "coordinates": [
          127.410408,
          36.316505
        ]
      }
    },
    {
      "type": "Feature",
      "properties": {
        "VERSION": 20150128,
        "NODE_ID": "554801042",
        "NAME": "유천(단)",
        "GROUP": "SA 11"
      },
      "geometry": {
        "type": "Point",
        "coordinates": [
          127.397972,
          36.316956
        ]
      }
    },
    {
      "type": "Feature",
      "properties": {
        "VERSION": 20150128,
        "NODE_ID": "554801064",
        "NAME": "매일약국(단)",
        "GROUP": "SA 58"
      },
      "geometry": {
        "type": "Point",
        "coordinates": [
          127.378326,
          36.31736
        ]
      }
    },
    {
      "type": "Feature",
      "properties": {
        "VERSION": 20150128,
        "NODE_ID": "554801068",
        "NAME": "쌍용예가(단)",
        "GROUP": "SA 34"
      },
      "geometry": {
        "type": "Point",
        "coordinates": [
          127.397346,
          36.322433
        ]
      }
    },
    {
      "type": "Feature",
      "properties": {
        "VERSION": 20150128,
        "NODE_ID": "554801096",
        "NAME": "테미(단)",
        "GROUP": "SA 36"
      },
      "geometry": {
        "type": "Point",
        "coordinates": [
          127.421432,
          36.317799
        ]
      }
    },
    {
      "type": "Feature",
      "properties": {
        "VERSION": 20150128,
        "NODE_ID": "554801099",
        "NAME": "천동초교삼거리",
        "GROUP": "SA 42"
      },
      "geometry": {
        "type": "Point",
        "coordinates": [
          127.442146,
          36.317966
        ]
      }
    },
    {
      "type": "Feature",
      "properties": {
        "VERSION": 20150128,
        "NODE_ID": "554801113",
        "NAME": "충대병원앞삼거리",
        "GROUP": "SA 36"
      },
      "geometry": {
        "type": "Point",
        "coordinates": [
          127.415634,
          36.318008
        ]
      }
    },
    {
      "type": "Feature",
      "properties": {
        "VERSION": 20150128,
        "NODE_ID": "554801130",
        "NAME": "문창초교(단)",
        "GROUP": " "
      },
      "geometry": {
        "type": "Point",
        "coordinates": [
          127.43412,
          36.31815
        ]
      }
    },
    {
      "type": "Feature",
      "properties": {
        "VERSION": 20150128,
        "NODE_ID": "554801140",
        "NAME": "한밭야구장(단)",
        "GROUP": "SA 38"
      },
      "geometry": {
        "type": "Point",
        "coordinates": [
          127.428802,
          36.318272
        ]
      }
    },
    {
      "type": "Feature",
      "properties": {
        "VERSION": 20150128,
        "NODE_ID": "554801145",
        "NAME": "대전장로교회(단)",
        "GROUP": "SA 74"
      },
      "geometry": {
        "type": "Point",
        "coordinates": [
          127.406586,
          36.318253
        ]
      }
    },
    {
      "type": "Feature",
      "properties": {
        "VERSION": 20150128,
        "NODE_ID": "554801150",
        "NAME": "자양초교(단)",
        "GROUP": "SA 43"
      },
      "geometry": {
        "type": "Point",
        "coordinates": [
          127.444443,
          36.33181
        ]
      }
    },
    {
      "type": "Feature",
      "properties": {
        "VERSION": 20150128,
        "NODE_ID": "554801204",
        "NAME": "배재대네거리",
        "GROUP": "SA 49"
      },
      "geometry": {
        "type": "Point",
        "coordinates": [
          127.373589,
          36.319279
        ]
      }
    },
    {
      "type": "Feature",
      "properties": {
        "VERSION": 20150128,
        "NODE_ID": "554801248",
        "NAME": "글꽃초교네거리",
        "GROUP": "SA 74"
      },
      "geometry": {
        "type": "Point",
        "coordinates": [
          127.410973,
          36.319397
        ]
      }
    },
    {
      "type": "Feature",
      "properties": {
        "VERSION": 20150128,
        "NODE_ID": "554801254",
        "NAME": "대흥초교삼거리",
        "GROUP": "SA 87"
      },
      "geometry": {
        "type": "Point",
        "coordinates": [
          127.424576,
          36.319668
        ]
      }
    },
    {
      "type": "Feature",
      "properties": {
        "VERSION": 20150128,
        "NODE_ID": "554801255",
        "NAME": "인동현대APT삼거리",
        "GROUP": "SA 40"
      },
      "geometry": {
        "type": "Point",
        "coordinates": [
          127.438766,
          36.319725
        ]
      }
    },
    {
      "type": "Feature",
      "properties": {
        "VERSION": 20150128,
        "NODE_ID": "554801268",
        "NAME": "문창초교네거리",
        "GROUP": "SA 38"
      },
      "geometry": {
        "type": "Point",
        "coordinates": [
          127.433098,
          36.319931
        ]
      }
    },
    {
      "type": "Feature",
      "properties": {
        "VERSION": 20150128,
        "NODE_ID": "554801301",
        "NAME": "하나APT(단)",
        "GROUP": "SA 34"
      },
      "geometry": {
        "type": "Point",
        "coordinates": [
          127.39679,
          36.320232
        ]
      }
    },
    {
      "type": "Feature",
      "properties": {
        "VERSION": 20150128,
        "NODE_ID": "554801307",
        "NAME": "청진장(단)",
        "GROUP": "SA 38"
      },
      "geometry": {
        "type": "Point",
        "coordinates": [
          127.434296,
          36.320415
        ]
      }
    },
    {
      "type": "Feature",
      "properties": {
        "VERSION": 20150128,
        "NODE_ID": "554801359",
        "NAME": "서대전우체국네거리",
        "GROUP": "SA 22"
      },
      "geometry": {
        "type": "Point",
        "coordinates": [
          127.414658,
          36.320732
        ]
      }
    },
    {
      "type": "Feature",
      "properties": {
        "VERSION": 20150128,
        "NODE_ID": "554801430",
        "NAME": "대흥초교네거리",
        "GROUP": "SA 38"
      },
      "geometry": {
        "type": "Point",
        "coordinates": [
          127.429939,
          36.321709
        ]
      }
    },
    {
      "type": "Feature",
      "properties": {
        "VERSION": 20150128,
        "NODE_ID": "554801431",
        "NAME": "인동네거리",
        "GROUP": "SA 40"
      },
      "geometry": {
        "type": "Point",
        "coordinates": [
          127.437843,
          36.321712
        ]
      }
    },
    {
      "type": "Feature",
      "properties": {
        "VERSION": 20150128,
        "NODE_ID": "554801439",
        "NAME": "판암주공네거리",
        "GROUP": "SA 83"
      },
      "geometry": {
        "type": "Point",
        "coordinates": [
          127.458824,
          36.321487
        ]
      }
    },
    {
      "type": "Feature",
      "properties": {
        "VERSION": 20150128,
        "NODE_ID": "554801445",
        "NAME": "오류로(단)",
        "GROUP": "SA 11"
      },
      "geometry": {
        "type": "Point",
        "coordinates": [
          127.405128,
          36.321712
        ]
      }
    },
    {
      "type": "Feature",
      "properties": {
        "VERSION": 20150128,
        "NODE_ID": "554801455",
        "NAME": "동양APT삼거리",
        "GROUP": "SA 34"
      },
      "geometry": {
        "type": "Point",
        "coordinates": [
          127.390419,
          36.32185
        ]
      }
    },
    {
      "type": "Feature",
      "properties": {
        "VERSION": 20150128,
        "NODE_ID": "554801472",
        "NAME": "예술가의집(단)",
        "GROUP": "SA 22"
      },
      "geometry": {
        "type": "Point",
        "coordinates": [
          127.416588,
          36.322048
        ]
      }
    },
    {
      "type": "Feature",
      "properties": {
        "VERSION": 20150128,
        "NODE_ID": "554801474",
        "NAME": "태평초교네거리",
        "GROUP": "SA 34"
      },
      "geometry": {
        "type": "Point",
        "coordinates": [
          127.396111,
          36.322117
        ]
      }
    },
    {
      "type": "Feature",
      "properties": {
        "VERSION": 20150128,
        "NODE_ID": "554801478",
        "NAME": "향우네거리",
        "GROUP": "SA 58"
      },
      "geometry": {
        "type": "Point",
        "coordinates": [
          127.377945,
          36.322289
        ]
      }
    },
    {
      "type": "Feature",
      "properties": {
        "VERSION": 20150128,
        "NODE_ID": "554801494",
        "NAME": "귀빈장(단)",
        "GROUP": "SA 49"
      },
      "geometry": {
        "type": "Point",
        "coordinates": [
          127.373734,
          36.322422
        ]
      }
    },
    {
      "type": "Feature",
      "properties": {
        "VERSION": 20150128,
        "NODE_ID": "554801499",
        "NAME": "판암주공삼거리",
        "GROUP": "SA 83"
      },
      "geometry": {
        "type": "Point",
        "coordinates": [
          127.460602,
          36.322243
        ]
      }
    },
    {
      "type": "Feature",
      "properties": {
        "VERSION": 20150128,
        "NODE_ID": "554801529",
        "NAME": "원평초교(단)",
        "GROUP": "SA 34"
      },
      "geometry": {
        "type": "Point",
        "coordinates": [
          127.398537,
          36.322754
        ]
      }
    },
    {
      "type": "Feature",
      "properties": {
        "VERSION": 20150128,
        "NODE_ID": "554801538",
        "NAME": "인동네거리",
        "GROUP": "SA 40"
      },
      "geometry": {
        "type": "Point",
        "coordinates": [
          127.437225,
          36.322887
        ]
      }
    },
    {
      "type": "Feature",
      "properties": {
        "VERSION": 20150128,
        "NODE_ID": "554801579",
        "NAME": "장미APT삼거리",
        "GROUP": " "
      },
      "geometry": {
        "type": "Point",
        "coordinates": [
          127.401115,
          36.323425
        ]
      }
    },
    {
      "type": "Feature",
      "properties": {
        "VERSION": 20150128,
        "NODE_ID": "554801598",
        "NAME": "삼정하이츠(단)",
        "GROUP": "SA 49"
      },
      "geometry": {
        "type": "Point",
        "coordinates": [
          127.373787,
          36.323673
        ]
      }
    },
    {
      "type": "Feature",
      "properties": {
        "VERSION": 20150128,
        "NODE_ID": "554801600",
        "NAME": "대고네거리",
        "GROUP": "SA 37"
      },
      "geometry": {
        "type": "Point",
        "coordinates": [
          127.425766,
          36.323517
        ]
      }
    },
    {
      "type": "Feature",
      "properties": {
        "VERSION": 20150128,
        "NODE_ID": "554801607",
        "NAME": "태평교좌안네거리",
        "GROUP": "SA 34"
      },
      "geometry": {
        "type": "Point",
        "coordinates": [
          127.384674,
          36.323673
        ]
      }
    },
    {
      "type": "Feature",
      "properties": {
        "VERSION": 20150128,
        "NODE_ID": "554801619",
        "NAME": "변동매매상사(단)",
        "GROUP": "SA 58"
      },
      "geometry": {
        "type": "Point",
        "coordinates": [
          127.378487,
          36.323849
        ]
      }
    },
    {
      "type": "Feature",
      "properties": {
        "VERSION": 20150128,
        "NODE_ID": "554801620",
        "NAME": "대전여중(단)",
        "GROUP": "SA 37"
      },
      "geometry": {
        "type": "Point",
        "coordinates": [
          127.426689,
          36.323818
        ]
      }
    },
    {
      "type": "Feature",
      "properties": {
        "VERSION": 20150128,
        "NODE_ID": "554801636",
        "NAME": "인동삼거리",
        "GROUP": "SA 40"
      },
      "geometry": {
        "type": "Point",
        "coordinates": [
          127.436562,
          36.324142
        ]
      }
    },
    {
      "type": "Feature",
      "properties": {
        "VERSION": 20150128,
        "NODE_ID": "554801641",
        "NAME": "변동초교(단)",
        "GROUP": "SA 34"
      },
      "geometry": {
        "type": "Point",
        "coordinates": [
          127.383194,
          36.324154
        ]
      }
    },
    {
      "type": "Feature",
      "properties": {
        "VERSION": 20150128,
        "NODE_ID": "554801645",
        "NAME": "태평초교삼거리",
        "GROUP": "SA 34"
      },
      "geometry": {
        "type": "Point",
        "coordinates": [
          127.395401,
          36.324123
        ]
      }
    },
    {
      "type": "Feature",
      "properties": {
        "VERSION": 20150128,
        "NODE_ID": "554801663",
        "NAME": "용운도서관(단)",
        "GROUP": "SA 83"
      },
      "geometry": {
        "type": "Point",
        "coordinates": [
          127.462219,
          36.324463
        ]
      }
    },
    {
      "type": "Feature",
      "properties": {
        "VERSION": 20150128,
        "NODE_ID": "554801666",
        "NAME": "인동삼거리",
        "GROUP": "SA 40"
      },
      "geometry": {
        "type": "Point",
        "coordinates": [
          127.436394,
          36.324463
        ]
      }
    },
    {
      "type": "Feature",
      "properties": {
        "VERSION": 20150128,
        "NODE_ID": "554801671",
        "NAME": "서대전초교삼거리",
        "GROUP": "SA 22"
      },
      "geometry": {
        "type": "Point",
        "coordinates": [
          127.410156,
          36.324406
        ]
      }
    },
    {
      "type": "Feature",
      "properties": {
        "VERSION": 20150128,
        "NODE_ID": "554801696",
        "NAME": "오류초교삼거리",
        "GROUP": "SA 21"
      },
      "geometry": {
        "type": "Point",
        "coordinates": [
          127.403992,
          36.324562
        ]
      }
    },
    {
      "type": "Feature",
      "properties": {
        "VERSION": 20150128,
        "NODE_ID": "554801705",
        "NAME": "중구보건지소네거리",
        "GROUP": "SA 37"
      },
      "geometry": {
        "type": "Point",
        "coordinates": [
          127.422371,
          36.324795
        ]
      }
    },
    {
      "type": "Feature",
      "properties": {
        "VERSION": 20150128,
        "NODE_ID": "554801710",
        "NAME": "중구청역네거리",
        "GROUP": "SA 37"
      },
      "geometry": {
        "type": "Point",
        "coordinates": [
          127.419708,
          36.324917
        ]
      }
    },
    {
      "type": "Feature",
      "properties": {
        "VERSION": 20150128,
        "NODE_ID": "554801711",
        "NAME": "오토바이특화거리네거리",
        "GROUP": "SA 38"
      },
      "geometry": {
        "type": "Point",
        "coordinates": [
          127.430199,
          36.324982
        ]
      }
    },
    {
      "type": "Feature",
      "properties": {
        "VERSION": 20150128,
        "NODE_ID": "554801720",
        "NAME": "도마초교(단)",
        "GROUP": "SA 49"
      },
      "geometry": {
        "type": "Point",
        "coordinates": [
          127.373856,
          36.325005
        ]
      }
    },
    {
      "type": "Feature",
      "properties": {
        "VERSION": 20150128,
        "NODE_ID": "554801763",
        "NAME": "대전예식원(단)",
        "GROUP": "SA 38"
      },
      "geometry": {
        "type": "Point",
        "coordinates": [
          127.431358,
          36.325359
        ]
      }
    },
    {
      "type": "Feature",
      "properties": {
        "VERSION": 20150128,
        "NODE_ID": "554801814",
        "NAME": "서대전초교삼거리",
        "GROUP": "SA 22"
      },
      "geometry": {
        "type": "Point",
        "coordinates": [
          127.408508,
          36.325729
        ]
      }
    },
    {
      "type": "Feature",
      "properties": {
        "VERSION": 20150128,
        "NODE_ID": "554801816",
        "NAME": "서대전초교(단)",
        "GROUP": "SA 22"
      },
      "geometry": {
        "type": "Point",
        "coordinates": [
          127.411606,
          36.325848
        ]
      }
    },
    {
      "type": "Feature",
      "properties": {
        "VERSION": 20150128,
        "NODE_ID": "554801861",
        "NAME": "용운(단)",
        "GROUP": "SA 96"
      },
      "geometry": {
        "type": "Point",
        "coordinates": [
          127.447784,
          36.326157
        ]
      }
    },
    {
      "type": "Feature",
      "properties": {
        "VERSION": 20150128,
        "NODE_ID": "554801875",
        "NAME": "오류굴다리네거리",
        "GROUP": "SA 21"
      },
      "geometry": {
        "type": "Point",
        "coordinates": [
          127.40329,
          36.326279
        ]
      }
    },
    {
      "type": "Feature",
      "properties": {
        "VERSION": 20150128,
        "NODE_ID": "554801878",
        "NAME": "호수돈여고삼거리",
        "GROUP": "SA 22"
      },
      "geometry": {
        "type": "Point",
        "coordinates": [
          127.413872,
          36.32732
        ]
      }
    },
    {
      "type": "Feature",
      "properties": {
        "VERSION": 20150128,
        "NODE_ID": "554801907",
        "NAME": "으능정이네거리",
        "GROUP": "SA 38"
      },
      "geometry": {
        "type": "Point",
        "coordinates": [
          127.427147,
          36.3265
        ]
      }
    },
    {
      "type": "Feature",
      "properties": {
        "VERSION": 20150128,
        "NODE_ID": "554801916",
        "NAME": "원동네거리",
        "GROUP": "SA 40"
      },
      "geometry": {
        "type": "Point",
        "coordinates": [
          127.435204,
          36.326748
        ]
      }
    },
    {
      "type": "Feature",
      "properties": {
        "VERSION": 20150128,
        "NODE_ID": "554801976",
        "NAME": "변동(단)",
        "GROUP": "SA 58"
      },
      "geometry": {
        "type": "Point",
        "coordinates": [
          127.380257,
          36.327152
        ]
      }
    },
    {
      "type": "Feature",
      "properties": {
        "VERSION": 20150128,
        "NODE_ID": "554801977",
        "NAME": "용두삼거리",
        "GROUP": "SA 21"
      },
      "geometry": {
        "type": "Point",
        "coordinates": [
          127.406792,
          36.327175
        ]
      }
    },
    {
      "type": "Feature",
      "properties": {
        "VERSION": 20150128,
        "NODE_ID": "554801982",
        "NAME": "선화교회(단)",
        "GROUP": "SA 22"
      },
      "geometry": {
        "type": "Point",
        "coordinates": [
          127.413185,
          36.327183
        ]
      }
    },
    {
      "type": "Feature",
      "properties": {
        "VERSION": 20150128,
        "NODE_ID": "554802005",
        "NAME": "은행(단)",
        "GROUP": "SA 38"
      },
      "geometry": {
        "type": "Point",
        "coordinates": [
          127.426651,
          36.327335
        ]
      }
    },
    {
      "type": "Feature",
      "properties": {
        "VERSION": 20150128,
        "NODE_ID": "554802047",
        "NAME": "용방마을삼거리",
        "GROUP": " "
      },
      "geometry": {
        "type": "Point",
        "coordinates": [
          127.454193,
          36.327766
        ]
      }
    },
    {
      "type": "Feature",
      "properties": {
        "VERSION": 20150128,
        "NODE_ID": "554802060",
        "NAME": "대신증권(단)",
        "GROUP": "SA 38"
      },
      "geometry": {
        "type": "Point",
        "coordinates": [
          127.423386,
          36.327747
        ]
      }
    },
    {
      "type": "Feature",
      "properties": {
        "VERSION": 20150128,
        "NODE_ID": "554802082",
        "NAME": "용운PB(단)",
        "GROUP": " "
      },
      "geometry": {
        "type": "Point",
        "coordinates": [
          127.456139,
          36.327911
        ]
      }
    },
    {
      "type": "Feature",
      "properties": {
        "VERSION": 20150128,
        "NODE_ID": "554802102",
        "NAME": "중구국민체육센터(단)",
        "GROUP": "SA 20"
      },
      "geometry": {
        "type": "Point",
        "coordinates": [
          127.415703,
          36.328178
        ]
      }
    },
    {
      "type": "Feature",
      "properties": {
        "VERSION": 20150128,
        "NODE_ID": "554802111",
        "NAME": "베스티안병원네거리",
        "GROUP": "SA 42"
      },
      "geometry": {
        "type": "Point",
        "coordinates": [
          127.439842,
          36.328327
        ]
      }
    },
    {
      "type": "Feature",
      "properties": {
        "VERSION": 20150128,
        "NODE_ID": "554802139",
        "NAME": "선화공원네거리",
        "GROUP": "SA 20"
      },
      "geometry": {
        "type": "Point",
        "coordinates": [
          127.420746,
          36.328438
        ]
      }
    },
    {
      "type": "Feature",
      "properties": {
        "VERSION": 20150128,
        "NODE_ID": "554802144",
        "NAME": "변전소네거리",
        "GROUP": "SA 29"
      },
      "geometry": {
        "type": "Point",
        "coordinates": [
          127.375122,
          36.328873
        ]
      }
    },
    {
      "type": "Feature",
      "properties": {
        "VERSION": 20150128,
        "NODE_ID": "554802159",
        "NAME": "중앙로역네거리",
        "GROUP": "SA 38"
      },
      "geometry": {
        "type": "Point",
        "coordinates": [
          127.42588,
          36.328682
        ]
      }
    },
    {
      "type": "Feature",
      "properties": {
        "VERSION": 20150128,
        "NODE_ID": "554802160",
        "NAME": "문화마을네거리",
        "GROUP": "SA 74"
      },
      "geometry": {
        "type": "Point",
        "coordinates": [
          127.410576,
          36.320351
        ]
      }
    },
    {
      "type": "Feature",
      "properties": {
        "VERSION": 20150128,
        "NODE_ID": "554802174",
        "NAME": "중앙시장삼거리",
        "GROUP": "SA 40"
      },
      "geometry": {
        "type": "Point",
        "coordinates": [
          127.433929,
          36.328876
        ]
      }
    },
    {
      "type": "Feature",
      "properties": {
        "VERSION": 20150128,
        "NODE_ID": "554802191",
        "NAME": "우송대입구삼거리",
        "GROUP": "SA 43"
      },
      "geometry": {
        "type": "Point",
        "coordinates": [
          127.45285,
          36.333084
        ]
      }
    },
    {
      "type": "Feature",
      "properties": {
        "VERSION": 20150128,
        "NODE_ID": "554802206",
        "NAME": "중구국민체육센터네거리",
        "GROUP": "SA 20"
      },
      "geometry": {
        "type": "Point",
        "coordinates": [
          127.417419,
          36.32922
        ]
      }
    },
    {
      "type": "Feature",
      "properties": {
        "VERSION": 20150128,
        "NODE_ID": "554802212",
        "NAME": "이안경원(단)",
        "GROUP": "SA 38"
      },
      "geometry": {
        "type": "Point",
        "coordinates": [
          127.427711,
          36.329353
        ]
      }
    },
    {
      "type": "Feature",
      "properties": {
        "VERSION": 20150128,
        "NODE_ID": "554802229",
        "NAME": "신안(단)",
        "GROUP": " "
      },
      "geometry": {
        "type": "Point",
        "coordinates": [
          127.439301,
          36.32951
        ]
      }
    },
    {
      "type": "Feature",
      "properties": {
        "VERSION": 20150128,
        "NODE_ID": "554802263",
        "NAME": "보훈회관(단)",
        "GROUP": "SA 9"
      },
      "geometry": {
        "type": "Point",
        "coordinates": [
          127.386459,
          36.329643
        ]
      }
    },
    {
      "type": "Feature",
      "properties": {
        "VERSION": 20150128,
        "NODE_ID": "554802266",
        "NAME": "삼창아파트삼거리",
        "GROUP": "SA 21"
      },
      "geometry": {
        "type": "Point",
        "coordinates": [
          127.390671,
          36.329666
        ]
      }
    },
    {
      "type": "Feature",
      "properties": {
        "VERSION": 20150128,
        "NODE_ID": "554802290",
        "NAME": "용운복음APT(단)",
        "GROUP": "SA 83"
      },
      "geometry": {
        "type": "Point",
        "coordinates": [
          127.466499,
          36.328289
        ]
      }
    },
    {
      "type": "Feature",
      "properties": {
        "VERSION": 20150128,
        "NODE_ID": "554802296",
        "NAME": "태평중(단)",
        "GROUP": "SA 35"
      },
      "geometry": {
        "type": "Point",
        "coordinates": [
          127.396744,
          36.329948
        ]
      }
    },
    {
      "type": "Feature",
      "properties": {
        "VERSION": 20150128,
        "NODE_ID": "554802298",
        "NAME": "소청1번가(단)",
        "GROUP": "SA 20"
      },
      "geometry": {
        "type": "Point",
        "coordinates": [
          127.424179,
          36.330029
        ]
      }
    },
    {
      "type": "Feature",
      "properties": {
        "VERSION": 20150128,
        "NODE_ID": "554802300",
        "NAME": "선화공원네거리",
        "GROUP": "SA 20"
      },
      "geometry": {
        "type": "Point",
        "coordinates": [
          127.419846,
          36.330074
        ]
      }
    },
    {
      "type": "Feature",
      "properties": {
        "VERSION": 20150128,
        "NODE_ID": "554802313",
        "NAME": "중앙시장(단)",
        "GROUP": "SA 40"
      },
      "geometry": {
        "type": "Point",
        "coordinates": [
          127.433403,
          36.3298
        ]
      }
    },
    {
      "type": "Feature",
      "properties": {
        "VERSION": 20150128,
        "NODE_ID": "554802317",
        "NAME": "용운삼거리",
        "GROUP": " "
      },
      "geometry": {
        "type": "Point",
        "coordinates": [
          127.452225,
          36.327805
        ]
      }
    },
    {
      "type": "Feature",
      "properties": {
        "VERSION": 20150128,
        "NODE_ID": "554802322",
        "NAME": "대룡초교(단)",
        "GROUP": " "
      },
      "geometry": {
        "type": "Point",
        "coordinates": [
          127.45462,
          36.329601
        ]
      }
    },
    {
      "type": "Feature",
      "properties": {
        "VERSION": 20150128,
        "NODE_ID": "554802330",
        "NAME": "중앙로(단)",
        "GROUP": "SA 40"
      },
      "geometry": {
        "type": "Point",
        "coordinates": [
          127.430794,
          36.330517
        ]
      }
    },
    {
      "type": "Feature",
      "properties": {
        "VERSION": 20150128,
        "NODE_ID": "554802350",
        "NAME": "신안네거리",
        "GROUP": " "
      },
      "geometry": {
        "type": "Point",
        "coordinates": [
          127.438637,
          36.330727
        ]
      }
    },
    {
      "type": "Feature",
      "properties": {
        "VERSION": 20150128,
        "NODE_ID": "554802374",
        "NAME": "유평초교(단)",
        "GROUP": "SA 35"
      },
      "geometry": {
        "type": "Point",
        "coordinates": [
          127.398926,
          36.328808
        ]
      }
    },
    {
      "type": "Feature",
      "properties": {
        "VERSION": 20150128,
        "NODE_ID": "554802419",
        "NAME": "선화네거리",
        "GROUP": "SA 20"
      },
      "geometry": {
        "type": "Point",
        "coordinates": [
          127.422737,
          36.331192
        ]
      }
    },
    {
      "type": "Feature",
      "properties": {
        "VERSION": 20150128,
        "NODE_ID": "554802453",
        "NAME": "용문한마음APT삼거리",
        "GROUP": "SA 21"
      },
      "geometry": {
        "type": "Point",
        "coordinates": [
          127.39283,
          36.331429
        ]
      }
    },
    {
      "type": "Feature",
      "properties": {
        "VERSION": 20150128,
        "NODE_ID": "554802495",
        "NAME": "선화초교(단)",
        "GROUP": "SA 114"
      },
      "geometry": {
        "type": "Point",
        "coordinates": [
          127.424141,
          36.332008
        ]
      }
    },
    {
      "type": "Feature",
      "properties": {
        "VERSION": 20150128,
        "NODE_ID": "554802504",
        "NAME": "대전역네거리",
        "GROUP": "SA 40"
      },
      "geometry": {
        "type": "Point",
        "coordinates": [
          127.432205,
          36.33215
        ]
      }
    },
    {
      "type": "Feature",
      "properties": {
        "VERSION": 20150128,
        "NODE_ID": "554802507",
        "NAME": "선화네거리",
        "GROUP": "SA 20"
      },
      "geometry": {
        "type": "Point",
        "coordinates": [
          127.421547,
          36.332153
        ]
      }
    },
    {
      "type": "Feature",
      "properties": {
        "VERSION": 20150128,
        "NODE_ID": "554802520",
        "NAME": "내동사무소(단)",
        "GROUP": "SA 29"
      },
      "geometry": {
        "type": "Point",
        "coordinates": [
          127.377892,
          36.33234
        ]
      }
    },
    {
      "type": "Feature",
      "properties": {
        "VERSION": 20150128,
        "NODE_ID": "554802523",
        "NAME": "영교네거리",
        "GROUP": "SA 114"
      },
      "geometry": {
        "type": "Point",
        "coordinates": [
          127.424995,
          36.332516
        ]
      }
    },
    {
      "type": "Feature",
      "properties": {
        "VERSION": 20150128,
        "NODE_ID": "554802525",
        "NAME": "내동(단)",
        "GROUP": "SA 29"
      },
      "geometry": {
        "type": "Point",
        "coordinates": [
          127.374641,
          36.3325
        ]
      }
    },
    {
      "type": "Feature",
      "properties": {
        "VERSION": 20150128,
        "NODE_ID": "554802560",
        "NAME": "선화교네거리",
        "GROUP": "SA 114"
      },
      "geometry": {
        "type": "Point",
        "coordinates": [
          127.425987,
          36.333126
        ]
      }
    },
    {
      "type": "Feature",
      "properties": {
        "VERSION": 20150128,
        "NODE_ID": "554802563",
        "NAME": "한민상가네거리",
        "GROUP": "SA 9"
      },
      "geometry": {
        "type": "Point",
        "coordinates": [
          127.382614,
          36.332836
        ]
      }
    },
    {
      "type": "Feature",
      "properties": {
        "VERSION": 20150128,
        "NODE_ID": "554802576",
        "NAME": "가장초교네거리",
        "GROUP": "SA 9"
      },
      "geometry": {
        "type": "Point",
        "coordinates": [
          127.386551,
          36.333118
        ]
      }
    },
    {
      "type": "Feature",
      "properties": {
        "VERSION": 20150128,
        "NODE_ID": "554802578",
        "NAME": "대성로오거리",
        "GROUP": "SA 20"
      },
      "geometry": {
        "type": "Point",
        "coordinates": [
          127.40847,
          36.333122
        ]
      }
    },
    {
      "type": "Feature",
      "properties": {
        "VERSION": 20150128,
        "NODE_ID": "554802593",
        "NAME": "우리요양원삼거리",
        "GROUP": "SA 21"
      },
      "geometry": {
        "type": "Point",
        "coordinates": [
          127.395058,
          36.333221
        ]
      }
    },
    {
      "type": "Feature",
      "properties": {
        "VERSION": 20150128,
        "NODE_ID": "554802605",
        "NAME": "가오변전소삼거리",
        "GROUP": "SA 68"
      },
      "geometry": {
        "type": "Point",
        "coordinates": [
          127.455719,
          36.302437
        ]
      }
    },
    {
      "type": "Feature",
      "properties": {
        "VERSION": 20150128,
        "NODE_ID": "554802614",
        "NAME": "어덕마을네거리",
        "GROUP": "SA 48"
      },
      "geometry": {
        "type": "Point",
        "coordinates": [
          127.402313,
          36.33358
        ]
      }
    },
    {
      "type": "Feature",
      "properties": {
        "VERSION": 20150128,
        "NODE_ID": "554802630",
        "NAME": "우송대(단)",
        "GROUP": "SA 43"
      },
      "geometry": {
        "type": "Point",
        "coordinates": [
          127.451195,
          36.333839
        ]
      }
    },
    {
      "type": "Feature",
      "properties": {
        "VERSION": 20150128,
        "NODE_ID": "554802636",
        "NAME": "우송고(단)",
        "GROUP": "SA 43"
      },
      "geometry": {
        "type": "Point",
        "coordinates": [
          127.445717,
          36.3339
        ]
      }
    },
    {
      "type": "Feature",
      "properties": {
        "VERSION": 20150128,
        "NODE_ID": "554802647",
        "NAME": "가장초교네거리",
        "GROUP": "SA 9"
      },
      "geometry": {
        "type": "Point",
        "coordinates": [
          127.387619,
          36.333946
        ]
      }
    },
    {
      "type": "Feature",
      "properties": {
        "VERSION": 20150128,
        "NODE_ID": "554802681",
        "NAME": "정동(단)",
        "GROUP": "SA 40"
      },
      "geometry": {
        "type": "Point",
        "coordinates": [
          127.431252,
          36.33437
        ]
      }
    },
    {
      "type": "Feature",
      "properties": {
        "VERSION": 20150128,
        "NODE_ID": "554802695",
        "NAME": "우송대(단)",
        "GROUP": "SA 43"
      },
      "geometry": {
        "type": "Point",
        "coordinates": [
          127.450668,
          36.334724
        ]
      }
    },
    {
      "type": "Feature",
      "properties": {
        "VERSION": 20150128,
        "NODE_ID": "554802710",
        "NAME": "괴정네거리",
        "GROUP": "SA 9"
      },
      "geometry": {
        "type": "Point",
        "coordinates": [
          127.38044,
          36.334671
        ]
      }
    },
    {
      "type": "Feature",
      "properties": {
        "VERSION": 20150128,
        "NODE_ID": "554802718",
        "NAME": "선화동천주교네거리",
        "GROUP": "SA 20"
      },
      "geometry": {
        "type": "Point",
        "coordinates": [
          127.418236,
          36.334812
        ]
      }
    },
    {
      "type": "Feature",
      "properties": {
        "VERSION": 20150128,
        "NODE_ID": "554802719",
        "NAME": "래미안2단지네거리",
        "GROUP": "SA 9"
      },
      "geometry": {
        "type": "Point",
        "coordinates": [
          127.388771,
          36.334846
        ]
      }
    },
    {
      "type": "Feature",
      "properties": {
        "VERSION": 20150128,
        "NODE_ID": "554802739",
        "NAME": "수침교네거리",
        "GROUP": "SA 57"
      },
      "geometry": {
        "type": "Point",
        "coordinates": [
          127.397202,
          36.334995
        ]
      }
    },
    {
      "type": "Feature",
      "properties": {
        "VERSION": 20150128,
        "NODE_ID": "554802748",
        "NAME": "동광초교(단)",
        "GROUP": "SA 43"
      },
      "geometry": {
        "type": "Point",
        "coordinates": [
          127.449921,
          36.33522
        ]
      }
    },
    {
      "type": "Feature",
      "properties": {
        "VERSION": 20150128,
        "NODE_ID": "554802775",
        "NAME": "자양PB(단)",
        "GROUP": " "
      },
      "geometry": {
        "type": "Point",
        "coordinates": [
          127.446762,
          36.33559
        ]
      }
    },
    {
      "type": "Feature",
      "properties": {
        "VERSION": 20150128,
        "NODE_ID": "554802777",
        "NAME": "동광초교(단)",
        "GROUP": "SA 43"
      },
      "geometry": {
        "type": "Point",
        "coordinates": [
          127.449371,
          36.335472
        ]
      }
    },
    {
      "type": "Feature",
      "properties": {
        "VERSION": 20150128,
        "NODE_ID": "554802784",
        "NAME": "목동초교(단)",
        "GROUP": "SA 20"
      },
      "geometry": {
        "type": "Point",
        "coordinates": [
          127.411957,
          36.335583
        ]
      }
    },
    {
      "type": "Feature",
      "properties": {
        "VERSION": 20150128,
        "NODE_ID": "554802790",
        "NAME": "중앙교회(단)",
        "GROUP": "SA 9"
      },
      "geometry": {
        "type": "Point",
        "coordinates": [
          127.379257,
          36.335697
        ]
      }
    },
    {
      "type": "Feature",
      "properties": {
        "VERSION": 20150128,
        "NODE_ID": "554802791",
        "NAME": "소제P/B(단)",
        "GROUP": "SA 42"
      },
      "geometry": {
        "type": "Point",
        "coordinates": [
          127.439194,
          36.335464
        ]
      }
    },
    {
      "type": "Feature",
      "properties": {
        "VERSION": 20150128,
        "NODE_ID": "554802797",
        "NAME": "서부농협용문지소(단)",
        "GROUP": "SA 35"
      },
      "geometry": {
        "type": "Point",
        "coordinates": [
          127.389877,
          36.335705
        ]
      }
    },
    {
      "type": "Feature",
      "properties": {
        "VERSION": 20150128,
        "NODE_ID": "554802802",
        "NAME": "보문중(단)",
        "GROUP": "SA 41"
      },
      "geometry": {
        "type": "Point",
        "coordinates": [
          127.424507,
          36.335827
        ]
      }
    },
    {
      "type": "Feature",
      "properties": {
        "VERSION": 20150128,
        "NODE_ID": "554802815",
        "NAME": "동광초교(단)",
        "GROUP": "SA 43"
      },
      "geometry": {
        "type": "Point",
        "coordinates": [
          127.448425,
          36.335899
        ]
      }
    },
    {
      "type": "Feature",
      "properties": {
        "VERSION": 20150128,
        "NODE_ID": "554802916",
        "NAME": "오량체육관네거리",
        "GROUP": "SA 73"
      },
      "geometry": {
        "type": "Point",
        "coordinates": [
          127.378922,
          36.304268
        ]
      }
    },
    {
      "type": "Feature",
      "properties": {
        "VERSION": 20150128,
        "NODE_ID": "554802970",
        "NAME": "복수네거리",
        "GROUP": "SA 80"
      },
      "geometry": {
        "type": "Point",
        "coordinates": [
          127.378471,
          36.298122
        ]
      }
    },
    {
      "type": "Feature",
      "properties": {
        "VERSION": 20150128,
        "NODE_ID": "554802971",
        "NAME": "복수중흥네거리",
        "GROUP": " "
      },
      "geometry": {
        "type": "Point",
        "coordinates": [
          127.37516,
          36.29829
        ]
      }
    },
    {
      "type": "Feature",
      "properties": {
        "VERSION": 20150128,
        "NODE_ID": "554802977",
        "NAME": "남대전등기소(단)",
        "GROUP": "SA 39"
      },
      "geometry": {
        "type": "Point",
        "coordinates": [
          127.437859,
          36.311672
        ]
      }
    },
    {
      "type": "Feature",
      "properties": {
        "VERSION": 20150128,
        "NODE_ID": "554802987",
        "NAME": "리슈빌네거리",
        "GROUP": "SA 80"
      },
      "geometry": {
        "type": "Point",
        "coordinates": [
          127.378624,
          36.299637
        ]
      }
    },
    {
      "type": "Feature",
      "properties": {
        "VERSION": 20150128,
        "NODE_ID": "554802988",
        "NAME": "리슈빌(단)",
        "GROUP": "SA 78"
      },
      "geometry": {
        "type": "Point",
        "coordinates": [
          127.380981,
          36.299408
        ]
      }
    },
    {
      "type": "Feature",
      "properties": {
        "VERSION": 20150128,
        "NODE_ID": "554802990",
        "NAME": "광무택시삼거리",
        "GROUP": "SA 83"
      },
      "geometry": {
        "type": "Point",
        "coordinates": [
          127.46447,
          36.332035
        ]
      }
    },
    {
      "type": "Feature",
      "properties": {
        "VERSION": 20150128,
        "NODE_ID": "554802999",
        "NAME": "복수교네거리",
        "GROUP": "SA 78"
      },
      "geometry": {
        "type": "Point",
        "coordinates": [
          127.382118,
          36.299282
        ]
      }
    },
    {
      "type": "Feature",
      "properties": {
        "VERSION": 20150128,
        "NODE_ID": "554803007",
        "NAME": "문화주공삼거리",
        "GROUP": "SA 81"
      },
      "geometry": {
        "type": "Point",
        "coordinates": [
          127.39666,
          36.308846
        ]
      }
    },
    {
      "type": "Feature",
      "properties": {
        "VERSION": 20150128,
        "NODE_ID": "554803011",
        "NAME": "천근삼거리",
        "GROUP": "SA 81"
      },
      "geometry": {
        "type": "Point",
        "coordinates": [
          127.401047,
          36.311214
        ]
      }
    },
    {
      "type": "Feature",
      "properties": {
        "VERSION": 20150128,
        "NODE_ID": "554803015",
        "NAME": "석천들삼거리",
        "GROUP": "SA 82"
      },
      "geometry": {
        "type": "Point",
        "coordinates": [
          127.470245,
          36.276051
        ]
      }
    },
    {
      "type": "Feature",
      "properties": {
        "VERSION": 20150128,
        "NODE_ID": "554803023",
        "NAME": "용운삼거리",
        "GROUP": " "
      },
      "geometry": {
        "type": "Point",
        "coordinates": [
          127.4515,
          36.327152
        ]
      }
    },
    {
      "type": "Feature",
      "properties": {
        "VERSION": 20150128,
        "NODE_ID": "554803024",
        "NAME": "용운삼거리",
        "GROUP": " "
      },
      "geometry": {
        "type": "Point",
        "coordinates": [
          127.451347,
          36.327652
        ]
      }
    },
    {
      "type": "Feature",
      "properties": {
        "VERSION": 20150128,
        "NODE_ID": "554803092",
        "NAME": "낭월네거리",
        "GROUP": "SA 82"
      },
      "geometry": {
        "type": "Point",
        "coordinates": [
          127.468246,
          36.280041
        ]
      }
    },
    {
      "type": "Feature",
      "properties": {
        "VERSION": 20150128,
        "NODE_ID": "554803114",
        "NAME": "동부순환4가",
        "GROUP": "SA 83"
      },
      "geometry": {
        "type": "Point",
        "coordinates": [
          127.462563,
          36.322407
        ]
      }
    },
    {
      "type": "Feature",
      "properties": {
        "VERSION": 20150128,
        "NODE_ID": "554803115",
        "NAME": "용운중삼거리",
        "GROUP": "SA 83"
      },
      "geometry": {
        "type": "Point",
        "coordinates": [
          127.466232,
          36.326214
        ]
      }
    },
    {
      "type": "Feature",
      "properties": {
        "VERSION": 20150128,
        "NODE_ID": "554803116",
        "NAME": "남대전나들목네거리",
        "GROUP": "SA 79"
      },
      "geometry": {
        "type": "Point",
        "coordinates": [
          127.47258,
          36.272484
        ]
      }
    },
    {
      "type": "Feature",
      "properties": {
        "VERSION": 20150128,
        "NODE_ID": "554803117",
        "NAME": "제이파크삼거리",
        "GROUP": "SA 79"
      },
      "geometry": {
        "type": "Point",
        "coordinates": [
          127.464127,
          36.283775
        ]
      }
    },
    {
      "type": "Feature",
      "properties": {
        "VERSION": 20150128,
        "NODE_ID": "554803142",
        "NAME": "과례마을네거리",
        "GROUP": "SA 81"
      },
      "geometry": {
        "type": "Point",
        "coordinates": [
          127.410866,
          36.309944
        ]
      }
    },
    {
      "type": "Feature",
      "properties": {
        "VERSION": 20150128,
        "NODE_ID": "554803143",
        "NAME": "천근삼거리",
        "GROUP": "SA 81"
      },
      "geometry": {
        "type": "Point",
        "coordinates": [
          127.399162,
          36.310307
        ]
      }
    },
    {
      "type": "Feature",
      "properties": {
        "VERSION": 20150128,
        "NODE_ID": "554803153",
        "NAME": "안영네거리",
        "GROUP": "SA 26"
      },
      "geometry": {
        "type": "Point",
        "coordinates": [
          127.3797,
          36.288136
        ]
      }
    },
    {
      "type": "Feature",
      "properties": {
        "VERSION": 20150128,
        "NODE_ID": "554803155",
        "NAME": "안영삼거리",
        "GROUP": "SA 26"
      },
      "geometry": {
        "type": "Point",
        "coordinates": [
          127.380974,
          36.290176
        ]
      }
    },
    {
      "type": "Feature",
      "properties": {
        "VERSION": 20150128,
        "NODE_ID": "554803160",
        "NAME": "사정네거리",
        "GROUP": "SA 26"
      },
      "geometry": {
        "type": "Point",
        "coordinates": [
          127.384491,
          36.295837
        ]
      }
    },
    {
      "type": "Feature",
      "properties": {
        "VERSION": 20150128,
        "NODE_ID": "554803176",
        "NAME": "남대전교차로B네거리",
        "GROUP": "SA 79"
      },
      "geometry": {
        "type": "Point",
        "coordinates": [
          127.46627,
          36.276775
        ]
      }
    },
    {
      "type": "Feature",
      "properties": {
        "VERSION": 20150128,
        "NODE_ID": "554803178",
        "NAME": "산내초교네거리",
        "GROUP": "SA 82"
      },
      "geometry": {
        "type": "Point",
        "coordinates": [
          127.469009,
          36.278507
        ]
      }
    },
    {
      "type": "Feature",
      "properties": {
        "VERSION": 20150128,
        "NODE_ID": "554803184",
        "NAME": "산내PB네거리",
        "GROUP": "SA 82"
      },
      "geometry": {
        "type": "Point",
        "coordinates": [
          127.467239,
          36.281937
        ]
      }
    },
    {
      "type": "Feature",
      "properties": {
        "VERSION": 20150128,
        "NODE_ID": "554803236",
        "NAME": "사정삼거리",
        "GROUP": "SA 26"
      },
      "geometry": {
        "type": "Point",
        "coordinates": [
          127.382401,
          36.292652
        ]
      }
    },
    {
      "type": "Feature",
      "properties": {
        "VERSION": 20150128,
        "NODE_ID": "554803238",
        "NAME": "우남아파트(단)",
        "GROUP": " "
      },
      "geometry": {
        "type": "Point",
        "coordinates": [
          127.381927,
          36.294552
        ]
      }
    },